[
  {
    "date": "7/27(月)",
    "n_companies": 8,
    "n_students": 13,
    "n_teachers": 4,
    "routes": [
      {
        "teacher": 1,
        "stops": [
          {
            "name": "株式会社青山製作所　大口工場",
            "cat": "製造工業",
            "lat": 35.3251,
            "lng": 136.895706,
            "students": [
              "1-5-17",
              "2-1-11"
            ],
            "dist_from_prev": 1.1
          },
          {
            "name": "大口屋木賀工場",
            "cat": "製造食品, 販売",
            "lat": 35.323299,
            "lng": 136.86908,
            "students": [
              "1-5-20",
              "1-5-21"
            ],
            "dist_from_prev": 2.4
          },
          {
            "name": "ドコモショップ江南店",
            "cat": "販売",
            "lat": 35.323132,
            "lng": 136.868393,
            "students": [
              "2-1-6",
              "2-1-13"
            ],
            "dist_from_prev": 0.1
          }
        ],
        "total_km": 5.9,
        "n_companies": 3,
        "n_students": 6
      },
      {
        "teacher": 2,
        "stops": [
          {
            "name": "きもの館なかね",
            "cat": "販売",
            "lat": 35.339359,
            "lng": 136.871674,
            "students": [
              "1-5-9",
              "1-5-10"
            ],
            "dist_from_prev": 1.8
          },
          {
            "name": "江南市立藤里保育園",
            "cat": "保育",
            "lat": 35.352188,
            "lng": 136.85791,
            "students": [
              "2-1-36"
            ],
            "dist_from_prev": 1.9
          },
          {
            "name": "江南市立宮田南保育園",
            "cat": "保育",
            "lat": 35.345955,
            "lng": 136.852081,
            "students": [
              "1-5-26"
            ],
            "dist_from_prev": 0.9
          }
        ],
        "total_km": 8.4,
        "n_companies": 3,
        "n_students": 4
      },
      {
        "teacher": 3,
        "stops": [
          {
            "name": "株式会社扶桑守口食品",
            "cat": "製造食品, 販売",
            "lat": 35.371872,
            "lng": 136.907837,
            "students": [
              "1-5-30",
              "1-5-40"
            ],
            "dist_from_prev": 4.5
          }
        ],
        "total_km": 9.0,
        "n_companies": 1,
        "n_students": 2
      },
      {
        "teacher": 4,
        "stops": [
          {
            "name": "GARN（ガルン）　モゾワンダーシティ店",
            "cat": "販売",
            "lat": 35.225266,
            "lng": 136.883301,
            "students": [
              "2-4-1"
            ],
            "dist_from_prev": 12.1
          }
        ],
        "total_km": 24.2,
        "n_companies": 1,
        "n_students": 1
      }
    ]
  },
  {
    "date": "7/28(火)",
    "n_companies": 7,
    "n_students": 12,
    "n_teachers": 3,
    "routes": [
      {
        "teacher": 1,
        "stops": [
          {
            "name": "江南中央食品",
            "cat": "製造食品, 販売",
            "lat": 35.3391,
            "lng": 136.869308,
            "students": [
              "1-5-8"
            ],
            "dist_from_prev": 2.0
          },
          {
            "name": "大口屋木賀工場",
            "cat": "製造食品, 販売",
            "lat": 35.323299,
            "lng": 136.86908,
            "students": [
              "1-5-29",
              "1-5-37"
            ],
            "dist_from_prev": 1.8
          },
          {
            "name": "江南市立藤里保育園",
            "cat": "保育",
            "lat": 35.352188,
            "lng": 136.85791,
            "students": [
              "2-2-13"
            ],
            "dist_from_prev": 3.4
          }
        ],
        "total_km": 10.8,
        "n_companies": 3,
        "n_students": 4
      },
      {
        "teacher": 2,
        "stops": [
          {
            "name": "サンハウス食品株式会社",
            "cat": "製造食品",
            "lat": 35.353722,
            "lng": 136.875168,
            "students": [
              "1-5-16",
              "1-5-19"
            ],
            "dist_from_prev": 2.6
          },
          {
            "name": "江南市立草井保育園",
            "cat": "保育",
            "lat": 35.368015,
            "lng": 136.885666,
            "students": [
              "1-5-12",
              "1-5-14"
            ],
            "dist_from_prev": 1.9
          },
          {
            "name": "株式会社扶桑守口食品",
            "cat": "製造食品, 販売",
            "lat": 35.371872,
            "lng": 136.907837,
            "students": [
              "1-5-7",
              "1-5-15"
            ],
            "dist_from_prev": 2.1
          }
        ],
        "total_km": 11.0,
        "n_companies": 3,
        "n_students": 6
      },
      {
        "teacher": 3,
        "stops": [
          {
            "name": "東名化学工業株式会社　小牧工場",
            "cat": "製造工業",
            "lat": 35.301033,
            "lng": 137.002777,
            "students": [
              "2-1-15",
              "2-4-20"
            ],
            "dist_from_prev": 10.8
          }
        ],
        "total_km": 21.6,
        "n_companies": 1,
        "n_students": 2
      }
    ]
  },
  {
    "date": "7/29(水)",
    "n_companies": 9,
    "n_students": 15,
    "n_teachers": 4,
    "routes": [
      {
        "teacher": 1,
        "stops": [
          {
            "name": "江南中央食品",
            "cat": "製造食品, 販売",
            "lat": 35.3391,
            "lng": 136.869308,
            "students": [
              "1-5-35"
            ],
            "dist_from_prev": 2.0
          },
          {
            "name": "江南市立藤里保育園",
            "cat": "保育",
            "lat": 35.352188,
            "lng": 136.85791,
            "students": [
              "2-2-20"
            ],
            "dist_from_prev": 1.8
          }
        ],
        "total_km": 7.4,
        "n_companies": 2,
        "n_students": 2
      },
      {
        "teacher": 2,
        "stops": [
          {
            "name": "江南市立布袋西保育園",
            "cat": "保育",
            "lat": 35.323299,
            "lng": 136.867432,
            "students": [
              "1-5-4",
              "1-5-22"
            ],
            "dist_from_prev": 2.4
          },
          {
            "name": "株式会社綿半ホームエイド江南店",
            "cat": "販売",
            "lat": 35.332783,
            "lng": 136.859161,
            "students": [
              "2-1-21",
              "2-2-4"
            ],
            "dist_from_prev": 1.3
          }
        ],
        "total_km": 6.6,
        "n_companies": 2,
        "n_students": 4
      },
      {
        "teacher": 3,
        "stops": [
          {
            "name": "榮美容室本店",
            "cat": "美容",
            "lat": 35.303158,
            "lng": 136.803268,
            "students": [
              "1-5-27"
            ],
            "dist_from_prev": 8.6
          },
          {
            "name": "GARN（ガルン）　モゾワンダーシティ店",
            "cat": "販売",
            "lat": 35.225266,
            "lng": 136.883301,
            "students": [
              "2-4-11"
            ],
            "dist_from_prev": 11.3
          }
        ],
        "total_km": 32.0,
        "n_companies": 2,
        "n_students": 2
      },
      {
        "teacher": 4,
        "stops": [
          {
            "name": "株式会社青山製作所　大口工場",
            "cat": "製造工業",
            "lat": 35.3251,
            "lng": 136.895706,
            "students": [
              "2-2-14",
              "2-4-21"
            ],
            "dist_from_prev": 1.1
          },
          {
            "name": "ガレ・ドゥ・ワタナベ",
            "cat": "製造食品, 販売",
            "lat": 35.313831,
            "lng": 136.878494,
            "students": [
              "1-5-11",
              "1-5-13"
            ],
            "dist_from_prev": 2.0
          },
          {
            "name": "キムラユニティー株式会社　犬山工場（調整中）",
            "cat": "物流",
            "lat": 35.329754,
            "lng": 136.943909,
            "students": [
              "2-1-1",
              "2-1-19",
              "2-4-14"
            ],
            "dist_from_prev": 6.2
          }
        ],
        "total_km": 14.1,
        "n_companies": 3,
        "n_students": 7
      }
    ]
  },
  {
    "date": "7/30(木)",
    "n_companies": 8,
    "n_students": 21,
    "n_teachers": 4,
    "routes": [
      {
        "teacher": 1,
        "stops": [
          {
            "name": "ガレ・ドゥ・ワタナベ",
            "cat": "製造食品, 販売",
            "lat": 35.313831,
            "lng": 136.878494,
            "students": [
              "1-5-33",
              "1-5-38"
            ],
            "dist_from_prev": 2.5
          },
          {
            "name": "リスパック株式会社 真空成形工場",
            "cat": "製造工業",
            "lat": 35.34903,
            "lng": 136.941666,
            "students": [
              "1-5-6",
              "2-1-27",
              "2-1-28",
              "2-3-11",
              "2-3-17"
            ],
            "dist_from_prev": 6.9
          }
        ],
        "total_km": 14.3,
        "n_companies": 2,
        "n_students": 7
      },
      {
        "teacher": 2,
        "stops": [
          {
            "name": "ＮＸキャッシュ・ロジスティクス株式会社　中部支店",
            "cat": "物流",
            "lat": 35.154476,
            "lng": 136.850098,
            "students": [
              "2-2-9",
              "2-2-11",
              "2-2-15",
              "2-4-12"
            ],
            "dist_from_prev": 20.3
          }
        ],
        "total_km": 40.6,
        "n_companies": 1,
        "n_students": 4
      },
      {
        "teacher": 3,
        "stops": [
          {
            "name": "江南市立古知野東保育園",
            "cat": "保育",
            "lat": 35.34539,
            "lng": 136.880692,
            "students": [
              "1-5-3",
              "1-5-31"
            ],
            "dist_from_prev": 1.6
          },
          {
            "name": "江南市立古知野中保育園",
            "cat": "保育",
            "lat": 35.342247,
            "lng": 136.870865,
            "students": [
              "1-5-18",
              "1-5-39",
              "2-4-3"
            ],
            "dist_from_prev": 1.0
          },
          {
            "name": "江南市立古知野西保育園",
            "cat": "保育",
            "lat": 35.334476,
            "lng": 136.852432,
            "students": [
              "1-5-2",
              "1-5-32"
            ],
            "dist_from_prev": 1.9
          }
        ],
        "total_km": 7.9,
        "n_companies": 3,
        "n_students": 7
      },
      {
        "teacher": 4,
        "stops": [
          {
            "name": "江南市立藤里保育園",
            "cat": "保育",
            "lat": 35.352188,
            "lng": 136.85791,
            "students": [
              "2-4-7"
            ],
            "dist_from_prev": 3.6
          },
          {
            "name": "江南市立小鹿保育園",
            "cat": "保育",
            "lat": 35.363976,
            "lng": 136.874802,
            "students": [
              "1-5-36",
              "2-2-8"
            ],
            "dist_from_prev": 2.0
          }
        ],
        "total_km": 9.3,
        "n_companies": 2,
        "n_students": 3
      }
    ]
  },
  {
    "date": "7/31(金)",
    "n_companies": 9,
    "n_students": 20,
    "n_teachers": 4,
    "routes": [
      {
        "teacher": 1,
        "stops": [
          {
            "name": "グンゼ江南工場",
            "cat": "製造工業",
            "lat": 35.352619,
            "lng": 136.869812,
            "students": [
              "1-5-24",
              "2-1-29",
              "2-1-32",
              "2-3-12",
              "2-3-15"
            ],
            "dist_from_prev": 2.8
          },
          {
            "name": "江南市立宮田東保育園",
            "cat": "保育",
            "lat": 35.360222,
            "lng": 136.858276,
            "students": [
              "1-5-1",
              "1-5-25"
            ],
            "dist_from_prev": 1.3
          }
        ],
        "total_km": 8.3,
        "n_companies": 2,
        "n_students": 7
      },
      {
        "teacher": 2,
        "stops": [
          {
            "name": "東罐興業株式会社　小牧工場",
            "cat": "製造工業",
            "lat": 35.298954,
            "lng": 136.94664,
            "students": [
              "1-5-34",
              "2-4-22"
            ],
            "dist_from_prev": 6.4
          },
          {
            "name": "東名化学工業株式会社　小牧工場",
            "cat": "製造工業",
            "lat": 35.301033,
            "lng": 137.002777,
            "students": [
              "2-3-8",
              "2-3-13"
            ],
            "dist_from_prev": 5.1
          }
        ],
        "total_km": 22.3,
        "n_companies": 2,
        "n_students": 4
      },
      {
        "teacher": 3,
        "stops": [
          {
            "name": "江南市立古知野南保育園",
            "cat": "保育",
            "lat": 35.336178,
            "lng": 136.867859,
            "students": [
              "1-5-23",
              "2-1-17"
            ],
            "dist_from_prev": 2.1
          },
          {
            "name": "九品寺幼稚園",
            "cat": "保育",
            "lat": 35.311146,
            "lng": 136.802643,
            "students": [
              "1-5-5"
            ],
            "dist_from_prev": 6.5
          }
        ],
        "total_km": 17.0,
        "n_companies": 2,
        "n_students": 3
      },
      {
        "teacher": 4,
        "stops": [
          {
            "name": "江南市立布袋北保育園",
            "cat": "保育",
            "lat": 35.324711,
            "lng": 136.881989,
            "students": [
              "1-5-28"
            ],
            "dist_from_prev": 1.3
          },
          {
            "name": "福玉ロジスティクス株式会社　大口センター",
            "cat": "物流",
            "lat": 35.314816,
            "lng": 136.893631,
            "students": [
              "2-4-18",
              "2-4-25"
            ],
            "dist_from_prev": 1.5
          },
          {
            "name": "株式会社メイコン　本社",
            "cat": "物流",
            "lat": 35.293083,
            "lng": 136.885376,
            "students": [
              "2-1-14",
              "2-2-6",
              "2-4-24"
            ],
            "dist_from_prev": 2.5
          }
        ],
        "total_km": 9.9,
        "n_companies": 3,
        "n_students": 6
      }
    ]
  },
  {
    "date": "8/24(月)",
    "n_companies": 8,
    "n_students": 16,
    "n_teachers": 3,
    "routes": [
      {
        "teacher": 1,
        "stops": [
          {
            "name": "江南市立古知野東保育園",
            "cat": "保育",
            "lat": 35.34539,
            "lng": 136.880692,
            "students": [
              "2-1-5",
              "2-4-5",
              "2-4-26"
            ],
            "dist_from_prev": 1.6
          },
          {
            "name": "江南市立小鹿保育園",
            "cat": "保育",
            "lat": 35.363976,
            "lng": 136.874802,
            "students": [
              "2-3-1",
              "2-4-27"
            ],
            "dist_from_prev": 2.1
          }
        ],
        "total_km": 7.4,
        "n_companies": 2,
        "n_students": 5
      },
      {
        "teacher": 2,
        "stops": [
          {
            "name": "きもの館なかね",
            "cat": "販売",
            "lat": 35.339359,
            "lng": 136.871674,
            "students": [
              "2-4-2",
              "2-4-4"
            ],
            "dist_from_prev": 1.8
          },
          {
            "name": "江南市立門弟山保育園",
            "cat": "保育, 販売",
            "lat": 35.348694,
            "lng": 136.863403,
            "students": [
              "2-1-3",
              "2-3-3"
            ],
            "dist_from_prev": 1.3
          },
          {
            "name": "江南市立古知野西保育園",
            "cat": "保育",
            "lat": 35.334476,
            "lng": 136.852432,
            "students": [
              "2-4-8"
            ],
            "dist_from_prev": 1.9
          }
        ],
        "total_km": 8.5,
        "n_companies": 3,
        "n_students": 5
      },
      {
        "teacher": 3,
        "stops": [
          {
            "name": "美容室ISA",
            "cat": "美容",
            "lat": 35.330742,
            "lng": 136.905304,
            "students": [
              "2-1-33",
              "2-3-18"
            ],
            "dist_from_prev": 1.4
          },
          {
            "name": "福玉米粒麦株式会社",
            "cat": "製造工業",
            "lat": 35.31641,
            "lng": 136.873947,
            "students": [
              "2-1-22",
              "2-2-1"
            ],
            "dist_from_prev": 3.3
          },
          {
            "name": "江南市立布袋保育園",
            "cat": "保育",
            "lat": 35.315956,
            "lng": 136.869095,
            "students": [
              "2-1-16",
              "2-2-12"
            ],
            "dist_from_prev": 0.4
          }
        ],
        "total_km": 7.9,
        "n_companies": 3,
        "n_students": 6
      }
    ]
  },
  {
    "date": "8/25(火)",
    "n_companies": 7,
    "n_students": 15,
    "n_teachers": 3,
    "routes": [
      {
        "teacher": 1,
        "stops": [
          {
            "name": "株式会社青山製作所　大口工場",
            "cat": "製造工業",
            "lat": 35.3251,
            "lng": 136.895706,
            "students": [
              "2-3-10",
              "2-4-13"
            ],
            "dist_from_prev": 1.1
          },
          {
            "name": "株式会社東海理化電機製作所",
            "cat": "製造工業",
            "lat": 35.308201,
            "lng": 136.892395,
            "students": [
              "2-1-34",
              "2-1-35",
              "2-4-29"
            ],
            "dist_from_prev": 1.9
          },
          {
            "name": "江南郵便局",
            "cat": "販売",
            "lat": 35.33247,
            "lng": 136.866745,
            "students": [
              "2-1-7",
              "2-2-3",
              "2-2-5"
            ],
            "dist_from_prev": 3.6
          }
        ],
        "total_km": 8.7,
        "n_companies": 3,
        "n_students": 8
      },
      {
        "teacher": 2,
        "stops": [
          {
            "name": "江南市立宮田南保育園",
            "cat": "保育",
            "lat": 35.345955,
            "lng": 136.852081,
            "students": [
              "2-1-18",
              "2-4-6"
            ],
            "dist_from_prev": 3.8
          },
          {
            "name": "江南市立宮田東保育園",
            "cat": "保育",
            "lat": 35.360222,
            "lng": 136.858276,
            "students": [
              "2-1-2"
            ],
            "dist_from_prev": 1.7
          }
        ],
        "total_km": 9.6,
        "n_companies": 2,
        "n_students": 3
      },
      {
        "teacher": 3,
        "stops": [
          {
            "name": "株式会社愛知イエローハット　一宮店",
            "cat": "販売",
            "lat": 35.299957,
            "lng": 136.822708,
            "students": [
              "2-2-2",
              "2-2-18"
            ],
            "dist_from_prev": 7.2
          },
          {
            "name": "TJ天気予報 7mm 北名古屋店",
            "cat": "美容",
            "lat": 35.235859,
            "lng": 136.881241,
            "students": [
              "2-1-10",
              "2-1-31"
            ],
            "dist_from_prev": 8.9
          }
        ],
        "total_km": 27.0,
        "n_companies": 2,
        "n_students": 4
      }
    ]
  },
  {
    "date": "8/26(水)",
    "n_companies": 8,
    "n_students": 16,
    "n_teachers": 4,
    "routes": [
      {
        "teacher": 1,
        "stops": [
          {
            "name": "株式会社綿半ホームエイド江南店",
            "cat": "販売",
            "lat": 35.332783,
            "lng": 136.859161,
            "students": [
              "2-1-9",
              "2-1-20"
            ],
            "dist_from_prev": 2.9
          },
          {
            "name": "江南市立布袋東保育園",
            "cat": "保育",
            "lat": 35.311016,
            "lng": 136.875839,
            "students": [
              "2-1-24",
              "2-2-10"
            ],
            "dist_from_prev": 2.9
          }
        ],
        "total_km": 8.6,
        "n_companies": 2,
        "n_students": 4
      },
      {
        "teacher": 2,
        "stops": [
          {
            "name": "株式会社愛知イエローハット　一宮店",
            "cat": "販売",
            "lat": 35.299957,
            "lng": 136.822708,
            "students": [
              "2-2-7",
              "2-3-16"
            ],
            "dist_from_prev": 7.2
          },
          {
            "name": "サロンド榮",
            "cat": "美容",
            "lat": 35.294224,
            "lng": 136.82579,
            "students": [
              "2-1-26"
            ],
            "dist_from_prev": 0.7
          },
          {
            "name": "九品寺幼稚園",
            "cat": "保育",
            "lat": 35.311146,
            "lng": 136.802643,
            "students": [
              "2-1-8",
              "2-4-9"
            ],
            "dist_from_prev": 2.8
          }
        ],
        "total_km": 19.1,
        "n_companies": 3,
        "n_students": 5
      },
      {
        "teacher": 3,
        "stops": [
          {
            "name": "株式会社デンケン",
            "cat": "製造工業",
            "lat": 35.35247,
            "lng": 136.973373,
            "students": [
              "2-1-25",
              "2-4-28"
            ],
            "dist_from_prev": 7.8
          }
        ],
        "total_km": 15.5,
        "n_companies": 1,
        "n_students": 2
      },
      {
        "teacher": 4,
        "stops": [
          {
            "name": "アメーテールアーム",
            "cat": "美容",
            "lat": 35.274368,
            "lng": 136.920776,
            "students": [
              "2-1-12",
              "2-4-10"
            ],
            "dist_from_prev": 7.1
          },
          {
            "name": "アイカテック建材株式会社名古屋工場　※安全靴貸出のためサイズを要連絡",
            "cat": "製造工業",
            "lat": 35.188705,
            "lng": 136.809784,
            "students": [
              "2-3-5",
              "2-3-19",
              "2-4-17"
            ],
            "dist_from_prev": 13.9
          }
        ],
        "total_km": 38.7,
        "n_companies": 2,
        "n_students": 5
      }
    ]
  },
  {
    "date": "8/27(木)",
    "n_companies": 6,
    "n_students": 11,
    "n_teachers": 2,
    "routes": [
      {
        "teacher": 1,
        "stops": [
          {
            "name": "株式会社林商店",
            "cat": "製造工業",
            "lat": 35.342197,
            "lng": 136.874588,
            "students": [
              "2-4-15",
              "2-4-19"
            ],
            "dist_from_prev": 1.7
          },
          {
            "name": "江南市立宮田保育園",
            "cat": "保育",
            "lat": 35.347504,
            "lng": 136.864716,
            "students": [
              "2-1-30",
              "2-2-19"
            ],
            "dist_from_prev": 1.1
          },
          {
            "name": "株式会社デンケン",
            "cat": "製造工業",
            "lat": 35.35247,
            "lng": 136.973373,
            "students": [
              "2-3-14",
              "2-4-16"
            ],
            "dist_from_prev": 9.9
          }
        ],
        "total_km": 20.5,
        "n_companies": 3,
        "n_students": 6
      },
      {
        "teacher": 2,
        "stops": [
          {
            "name": "江南市立布袋東保育園",
            "cat": "保育",
            "lat": 35.311016,
            "lng": 136.875839,
            "students": [
              "2-3-6",
              "2-4-23"
            ],
            "dist_from_prev": 2.9
          },
          {
            "name": "株式会社愛知イエローハット　一宮店",
            "cat": "販売",
            "lat": 35.299957,
            "lng": 136.822708,
            "students": [
              "2-2-16",
              "2-3-7"
            ],
            "dist_from_prev": 5.0
          },
          {
            "name": "FUSION",
            "cat": "美容",
            "lat": 35.303356,
            "lng": 136.803253,
            "students": [
              "2-2-17"
            ],
            "dist_from_prev": 1.8
          }
        ],
        "total_km": 18.3,
        "n_companies": 3,
        "n_students": 5
      }
    ]
  },
  {
    "date": "8/28(金)",
    "n_companies": 2,
    "n_students": 5,
    "n_teachers": 1,
    "routes": [
      {
        "teacher": 1,
        "stops": [
          {
            "name": "江南市立布袋北保育園",
            "cat": "保育",
            "lat": 35.324711,
            "lng": 136.881989,
            "students": [
              "2-1-23"
            ],
            "dist_from_prev": 1.3
          },
          {
            "name": "江南市立古知野北保育園",
            "cat": "保育",
            "lat": 35.354492,
            "lng": 136.88533,
            "students": [
              "2-1-4",
              "2-3-2",
              "2-3-4",
              "2-3-9"
            ],
            "dist_from_prev": 3.3
          }
        ],
        "total_km": 7.0,
        "n_companies": 2,
        "n_students": 5
      }
    ]
  }
]